{"stations": [{"id": "ChIJGWkVdEmXQ4YRfiAMKRZpG0A", "station_name": "EVgo Charging Station", "latitude": 29.694886999999998, "longitude": -96.90238699999999}, {"id": "ChIJbShH_BJGQ4YRxunvGg2WZPw", "station_name": "Tesla Supercharger", "latitude": 29.651015800000003, "longitude": -97.5952441}, {"id": "ChIJ-TuqHgZ2Q4YROXsjRS4ic1c", "station_name": "Shell Recharge Charging Station", "latitude": 29.695867999999994, "longitude": -97.10332}, {"id": "ChIJ4fbQPwR2Q4YRSKuYAj517wc", "station_name": "Tesla Supercharger", "latitude": 29.6979099, "longitude": -97.1002468}, {"id": "ChIJFYatiVtHQ4YRW9s0SZxgOY0", "station_name": "Mercedes-Benz Charging Station", "latitude": 29.649767499999996, "longitude": -97.5945998}, {"id": "ChIJVVXZOt3kQoYR6_CNY9plmKg", "station_name": "EV Connect Charging Station", "latitude": 29.091254799999994, "longitude": -97.28468679999999}, {"id": "ChIJJawErUE-Q4YRZ414l3CHTeE", "station_name": "Universal Charging Station", "latitude": 29.5124397, "longitude": -97.46221059999999}, {"id": "ChIJv16nUDo-Q4YRDtgRsJKXzGA", "station_name": "ChargePoint Charging Station", "latitude": 29.518538299999996, "longitude": -97.454473}, {"id": "ChIJ4zq6PZGUQ4YRvh5WVN1mE0Y", "station_name": "Tesla Supercharger", "latitude": 29.692891, "longitude": -96.777389}, {"id": "ChIJYwHcOt3kQoYRkdafMfFbgkY", "station_name": "Shell Recharge Charging Station", "latitude": 29.091610799999998, "longitude": -97.2848991}, {"id": "ChIJbZevdwDlQoYR2BuW_64BS50", "station_name": "Universal Charging Station", "latitude": 29.108693499999994, "longitude": -97.2819863}, {"id": "ChIJeT-CLRJGQ4YRmuaflu0f4nM", "station_name": "Mercedes-Benz Charging Station", "latitude": 29.6497298, "longitude": -97.5945065}, {"id": "ChIJraqaoejkQoYRJ5e0r56ektQ", "station_name": "ChargePoint Charging Station", "latitude": 29.0927662, "longitude": -97.2911644}]}