{"stations": [{"id": "ChIJZbZ_1WVtRYYRESllVDmvzHg", "station_name": "Tesla Supercharger", "latitude": 31.137929, "longitude": -97.32862899999999}, {"id": "ChIJU8jTMgBtRYYRIVu1Ld2px5Q", "station_name": "Mercedes-Benz Charging Station", "latitude": 31.137482600000002, "longitude": -97.32737259999999}, {"id": "ChIJCU0OFn4lRYYRteVRyMNOug4", "station_name": "Tesla Supercharger", "latitude": 30.814397099999997, "longitude": -97.6104494}, {"id": "ChIJveI8NQBrRYYRBffgc0r6twU", "station_name": "Universal Charging Station", "latitude": 31.075019500000003, "longitude": -97.37010610000002}, {"id": "ChIJsT5tXZw_RYYRpF0SG_0bEzs", "station_name": "Tesla Destination Charger", "latitude": 31.031164999999998, "longitude": -97.47743799999999}, {"id": "ChIJUVG4bqhqRYYRgsi60dCU4D0", "station_name": "ChargePoint Charging Station", "latitude": 31.058754699999998, "longitude": -97.4361571}, {"id": "ChIJzeVSku5qRYYRyyhjWCFslDw", "station_name": "Universal EV Charging Station", "latitude": 31.0803624, "longitude": -97.4099499}, {"id": "ChIJDzKpou5qRYYRVbGlb5HszvI", "station_name": "Nissan Dealership Electric Charging Station", "latitude": 31.079542600000003, "longitude": -97.4101566}, {"id": "ChIJnw9Zwe9qRYYR0gHgATzOx1Q", "station_name": "Universal EV Charging Station", "latitude": 31.083134, "longitude": -97.407304}, {"id": "ChIJ4VGrDvbdRIYRLwjLEY8V-No", "station_name": "ChargePoint Charging Station", "latitude": 30.574548, "longitude": -97.43913099999999}, {"id": "ChIJlbEEXQBBRYYRHhk3u7iI5FI", "station_name": "FLO Charging Station", "latitude": 31.055705599999996, "longitude": -97.4618709}, {"id": "ChIJgSDUhgGvRYYR7vLK9YBZiSg", "station_name": "Universal Charging Station", "latitude": 30.848308599999996, "longitude": -96.9677842}, {"id": "ChIJsaqa6XJARYYR2AdB408IMhs", "station_name": "FLO Charging Station", "latitude": 31.056513, "longitude": -97.461252}, {"id": "ChIJf7kKs25ARYYRI3qDg4TODt0", "station_name": "Blink Charging Station", "latitude": 31.063582999999998, "longitude": -97.4661094}, {"id": "ChIJmTYAZPdrRYYRdQx9Pz8zsEU", "station_name": "Nissan Charging Station", "latitude": 31.0805636, "longitude": -97.4137277}, {"id": "ChIJVc8lGgBTRIYRgGcJzqOlPOo", "station_name": "Universal Charging Station", "latitude": 30.6643288, "longitude": -96.98205039999999}, {"id": "ChIJ1XtlV1MkRYYRtRVvMcbe5Sk", "station_name": "EVmatch Charging Station", "latitude": 30.806559500000002, "longitude": -97.5675234}, {"id": "ChIJL572tFMkRYYRapM2YFeZgVE", "station_name": "EVmatch Charging Station", "latitude": 30.804345400000003, "longitude": -97.5642283}]}